<?xml version="1.0" encoding="utf-8"?>
<listOfObjects>
  <Customer>
    <Id>0</Id>
    <Name>Nick</Name>
    <Phone>+972-594533645</Phone>
    <Lattitude>33.58047234992519</Lattitude>
    <Longitude>34.511227569315224</Longitude>
  </Customer>
  <Customer>
    <Id>1</Id>
    <Name>Gal</Name>
    <Phone>+972-587369271</Phone>
    <Lattitude>33.910868866327625</Lattitude>
    <Longitude>34.00210134452307</Longitude>
  </Customer>
  <Customer>
    <Id>2</Id>
    <Name>Neo</Name>
    <Phone>+972-547836000</Phone>
    <Lattitude>33.99904199410185</Lattitude>
    <Longitude>34.46880553870872</Longitude>
  </Customer>
  <Customer>
    <Id>3</Id>
    <Name>Trinity</Name>
    <Phone>+972-565194069</Phone>
    <Lattitude>33.80899028005497</Lattitude>
    <Longitude>34.049815172352744</Longitude>
  </Customer>
  <Customer>
    <Id>4</Id>
    <Name>Gil</Name>
    <Phone>+972-564442307</Phone>
    <Lattitude>33.99295925069273</Lattitude>
    <Longitude>34.352487516753605</Longitude>
  </Customer>
  <Customer>
    <Id>5</Id>
    <Name>Gil</Name>
    <Phone>+972-529592073</Phone>
    <Lattitude>33.856559640195485</Lattitude>
    <Longitude>34.59985317876556</Longitude>
  </Customer>
  <Customer>
    <Id>6</Id>
    <Name>Yoni</Name>
    <Phone>+972-546919036</Phone>
    <Lattitude>33.336777165688936</Lattitude>
    <Longitude>34.21959397579524</Longitude>
  </Customer>
  <Customer>
    <Id>7</Id>
    <Name>Gil</Name>
    <Phone>+972-583930636</Phone>
    <Lattitude>33.85959258808735</Lattitude>
    <Longitude>34.009665601425645</Longitude>
  </Customer>
  <Customer>
    <Id>8</Id>
    <Name>Yoni</Name>
    <Phone>+972-575178966</Phone>
    <Lattitude>33.9245478044844</Lattitude>
    <Longitude>34.31832458326515</Longitude>
  </Customer>
  <Customer>
    <Id>9</Id>
    <Name>Neo5</Name>
    <Phone>+972-556542889</Phone>
    <Lattitude>33.35391642821669</Lattitude>
    <Longitude>34.42296163850602</Longitude>
  </Customer>
</listOfObjects>